"id","userid","title","tags","latitude","longitude","views","date_taken","date_uploaded","accuracy","flickr_secret","flickr_server","flickr_farm","x","y","z"
3889087403,"25065987@N05","Light House on Lake Ponchatrain","{moon,lighthouse,reflection,louisiana,moonlight,nightshots,madisonville,lakeponchatrain}",30.380316,-90.169172,472,"2009-09-04 23:37:53","2009-09-05 13:43:53",14,"26cba511d3",2643,3,-16260.1547894583,-5507031.52031794,3206815.29094558
3889881036,"25065987@N05","Ship Wreck on Lake Ponchatrain","{light,moon,reflection,louisiana,shipwreck,northshore,moonlight,tugboat,grounded,madisonville,lakeponchatrain}",30.37754,-90.163378,314,"2009-09-04 23:35:45","2009-09-05 13:43:51",14,"e910ee3ea3",2537,3,-15703.703356025,-5507188.76713877,3206549.80013151
3873511228,"25065987@N05","Fuchs - Lafayette No 2 - New Orleans","{cemetery,grave,louisiana,neworleans,vault,crypt,fuchs}",29.934677,-90.091345,98,"2008-04-04 13:21:10","2009-08-31 04:03:58",15,"797a76c582",2487,3,-8819.30203324463,-5531866.62260131,3164100.62858651
3872700199,"25065987@N05","Greenwood & Cypress Grove Cemetery","{door,cemetery,rust,louisiana,neworleans,chain,doorknob,padlock,crypt,forlorn}",29.980159,-90.112062,85,"2009-05-24 14:11:59","2009-08-31 03:54:18",16,"7f262513ca",2453,3,-10814.588866206,-5529345.44360423,3168468.79142305
3873466366,"25065987@N05","Warning","{cemetery,grave,warning,louisiana,neworleans,tomb,crypt,gravesite}",29.980159,-90.112062,70,"2009-05-24 13:46:52","2009-08-31 03:47:52",16,"caca02e548",2473,3,-10814.588866206,-5529345.44360423,3168468.79142305
3872664227,"25065987@N05","Greenwood Cemetery","{flowers,cemetery,grave,gold,golden,louisiana,paint,neworleans,vault,bouquet,crypt}",29.983579,-90.112309,93,"2009-05-24 13:02:15","2009-08-31 03:41:36",16,"9a9dc1786c",2488,3,-10838.0543123354,-5529155.94404704,3168797.17401319
6265230574,"12518662@N04","Del Rey - BH","{mundo,bh,jurأ،ssico}",-19.889991,-43.968089,6,"2011-10-20 17:03:19","2011-10-21 00:22:33",16,"2eabe44170",6175,7,4318352.75181812,-4165539.25906604,-2156248.85050283
3873427350,"25065987@N05","Greenwood Cemetery - New Orleans","{cemetery,grave,louisiana,neworleans,headstone,tomb,brotherhood,boilermakers,shipbuilders}",29.983579,-90.112309,136,"2009-05-24 12:45:54","2009-08-31 03:33:50",16,"c1d6afa3d4",2604,3,-10838.0543123354,-5529155.94404704,3168797.17401319
3873404676,"25065987@N05","St Louis No 1 Cemetery - New Orleans","{flowers,blue,roses,strange,grave,louisiana,purple,neworleans,eerie,vault,crypt}",29.959447,-90.071464,124,"2009-05-24 10:56:02","2009-08-31 03:25:44",16,"33ebfa36cd",2592,3,-6898.09553137698,-5530498.65205174,3166479.8224466
3872594867,"25065987@N05","Grave of Marie Leveau","{cemetery,grave,louisiana,neworleans,cult,vault,crypt,priestess,voodoo,marieleveau}",29.959447,-90.071464,191,"2009-05-24 10:53:54","2009-08-31 03:17:05",16,"d30268c4d1",2571,3,-6898.09553137698,-5530498.65205174,3166479.8224466
3873353646,"25065987@N05","St Louis Cemetery No 1 - New Orleans","{cemetery,grave,louisiana,neworleans,vault,ochre,crypt}",29.959447,-90.071464,101,"2009-05-24 10:49:25","2009-08-31 03:08:21",16,"7148891115",2654,3,-6898.09553137698,-5530498.65205174,3166479.8224466
3873326732,"25065987@N05","St Louis No. 1 Cemetery - New Orleans","{cemetery,grave,soldier,louisiana,memorial,neworleans,revolution,revolutionarywar,crypt}",29.959447,-90.071464,126,"2009-05-24 10:45:18","2009-08-31 02:59:34",16,"4bda378502",3461,4,-6898.09553137698,-5530498.65205174,3166479.8224466
3872469641,"25065987@N05","Likely Grave of Unknown Voodoo Priestess","{black,dark,magic,occult,priestess,voodoo,sinistergravedeathcryptneworleanslouisianaeeriemacabre}",29.959447,-90.071464,441,"2009-05-24 10:20:03","2009-08-31 02:36:38",16,"ebe0b9b2c4",3513,4,-6898.09553137698,-5530498.65205174,3166479.8224466
3873255306,"25065987@N05","Praying Cherubum in St Louis No. 1 Cemetery - New Orleans, LA","{grave,death,louisiana,neworleans,eerie,macabre,crypt}",29.959447,-90.071464,117,"2009-05-24 10:11:20","2009-08-31 02:36:37",16,"7e3bfb44cf",2524,3,-6898.09553137698,-5530498.65205174,3166479.8224466
3872382467,"25065987@N05","Sparky's","{bar,louisiana,nightshot,batonrouge,tavern,saloon,jukejoint,redstick}",30.467096,-91.00409,158,"2009-08-30 20:59:04","2009-08-31 02:08:06",16,"f782ae3293",2458,3,-96419.0564339723,-5501338.96910524,3215110.99938666
3857885850,"25065987@N05","St Roch Cemetery - New Orleans, LA","{strange,grave,death,louisiana,god,neworleans,cemetary,religion,jesus,eerie,graves,macabre,hdr,gravesite,bigeasy,stroch,camposanto}",29.975522,-90.052077,533,"2009-08-25 20:02:23","2009-08-26 01:13:00",16,"f19f89bbf0",2593,3,-5025.94801211781,-5529610.57372528,3168023.53677341
3857096251,"25065987@N05","DSC_0437_IJFR","{strange,grave,death,louisiana,god,neworleans,cemetary,religion,jesus,eerie,graves,macabre,hdr,gravesite,bigeasy,stroch,camposanto}",29.975522,-90.052077,76,"2009-08-25 19:51:53","2009-08-26 01:12:58",16,"4d93e55036",2564,3,-5025.94801211781,-5529610.57372528,3168023.53677341
1469526940,"14245034@N03","WC Library","{lensbaby,library}",43.693197,-80.409986,18,"2007-10-01 00:00:00","2007-10-01 19:05:58",15,"b6c024fc8e",1314,2,769526.150710873,-4554539.17298991,4383507.00751912
3857096211,"25065987@N05","DSC_0511_IJFR","{strange,grave,death,louisiana,god,neworleans,cemetary,religion,jesus,eerie,graves,macabre,hdr,gravesite,bigeasy,stroch,camposanto}",29.975522,-90.052077,84,"2009-08-25 20:11:46","2009-08-26 01:12:57",16,"323f8f6b37",2473,3,-5025.94801211781,-5529610.57372528,3168023.53677341
3857096163,"25065987@N05","DSC_0506_IJFR","{strange,grave,death,louisiana,god,neworleans,cemetary,religion,jesus,eerie,graves,macabre,hdr,gravesite,bigeasy,stroch,camposanto}",29.975522,-90.052077,61,"2009-08-25 19:33:34","2009-08-26 01:12:56",16,"2fbe2c1861",2483,3,-5025.94801211781,-5529610.57372528,3168023.53677341
3857096121,"25065987@N05","St Roch Cemetery - New Orleans, LA","{strange,grave,death,louisiana,god,neworleans,cemetary,religion,jesus,eerie,graves,macabre,hdr,gravesite,bigeasy,stroch,camposanto}",29.975522,-90.052077,206,"2009-08-25 20:08:28","2009-08-26 01:12:55",16,"57caf99a33",3472,4,-5025.94801211781,-5529610.57372528,3168023.53677341
3846761070,"25065987@N05","Brown Stockyard","{abandoned,architecture,dark,photography,louisiana,eerie,batonrouge,hdr,stockyard}",30.501194,-91.127729,241,"2009-08-22 13:41:15","2009-08-22 21:47:19",13,"4fb96444f4",3453,4,-108252.462067035,-5499200.81098104,3218368.59705466
6854541795,"40458064@N06","Tonto Platform","{travel,winter,light,usa,beautiful,america,photography,photo,nikon,colorful,desert,dynamic,photos,grandcanyon,dramatic,ferris,fresh,photograph,americana,dslr,hdr,phantomranch,engaging,plateaupoint,matherpoint,d90,brightangelcanyon,tontoplatform,pipecreek,tontotrail,nikond90,dxformat,billferris}",36.061016,-112.107399,111,"2012-02-10 20:06:56","2012-02-11 03:06:56",15,"eb4de03eb8",7170,8,-1942693.42078366,-4782505.13005015,3733666.85081225
3846760336,"25065987@N05","Dead Game Records","{street,urban,music,game,records,abandoned,architecture,dark,dead,photography,store,dvd,louisiana,cd,eerie,batonrouge,hdr}",30.432652,-91.173563,348,"2009-08-22 10:11:28","2009-08-22 21:46:59",13,"d280b47d2f",2495,3,-112730.445309197,-5502964.44165679,3211819.20538025
2825135728,"27354388@N08","Plأ¶nlein","{house,germany,deutschland,casa,haus,holz,germania,legno,rothenburgobdertauber,fachwerkhaus,sonycybershott2}",49.374119,10.180238,61,"2008-09-03 16:08:27","2008-09-03 14:08:27",16,"cdb8f8973f",3275,4,4095437.51589978,735427.310897452,4817752.7022963
2825134752,"27354388@N08","Fachwerkhaus","{house,germany,deutschland,holz,germania,legno,rothenburgobdertauber,fachwerkhaus,sonycybershott2}",49.376561,10.183725,126,"2008-09-03 16:08:01","2008-09-03 14:08:01",16,"e01ffe9117",3173,4,4095189.8621074,735640.110464828,4817929.53605409
2824840348,"27354388@N08","Wallfahrtskirche Birnau","{pink,church,germany,deutschland,kirche,rosa,chiesa,bodensee,germania,birnau,lagodicostanza,sonycybershott2}",47.746328,9.220265,123,"2008-08-13 17:06:23","2008-09-03 11:28:32",16,"3c684b1d2c",3109,4,4241122.51137551,688451.442659733,4697956.99862573
2824755024,"27354388@N08","Al mercato di Augusta","{fruits,vegetables,germany,deutschland,market,augusta,markt,frutta,mercato,germania,augsburg,gemأ¼se,obst,verdura,sonycybershott2}",48.368702,10.899649,64,"2008-09-03 12:24:30","2008-09-03 10:24:30",16,"aa31af90f6",3218,4,4168579.44769767,802715.389958686,4744210.73724758
2823831289,"27354388@N08","Tramonto sul Lago di Costanza","{sunset,germany,deutschland,tramonto,sonnenuntergang,bodensee,germania,nonnenhorn,lagodicostanza,sonycybershott2}",47.574528,9.60838,49,"2008-09-03 11:18:53","2008-09-03 09:18:53",15,"4cc28d4e29",3051,4,4250282.76014727,719520.958976481,4685091.79334323
2820536737,"27354388@N08","Donauwأ¶rth","{germany,bayern,deutschland,bavaria,germania,baviera,donauwأ¶rth,sonycybershott2}",48.718552,10.781428,101,"2008-09-02 13:02:26","2008-09-02 11:07:51",15,"9507abff1d",3117,4,4141584.85567193,788658.335150218,4769966.82816325
2817908296,"27354388@N08","Swiss Landscape","{montagne,landscape,switzerland,svizzera,paesaggio,sanbernardino,naturalmente,blueribbonwinner,grigioni,sonycybershott2}",46.460103,9.191941,104,"2008-09-01 16:30:37","2008-09-01 14:33:19",16,"868fb3c095",3116,4,4344869.21063743,703088.106717339,4600626.44128323
2816841165,"27354388@N08","Squirrels of the Black Forest","{germany,deutschland,squirrels,peanuts,schwarzwald,blackforest,germania,noccioline,eichhأ¶rnchen,scoiattoli,naturalmente,forestanera,sonycybershott2}",48.139265,8.240336,108,"2008-09-01 15:12:55","2008-09-01 13:12:55",16,"de75a25f57",2218,3,4220172.15814058,611169.084360486,4727223.89468805
2700164839,"27354388@N08","Car or ...?","{italy,lake,italia,lagomaggiore,cannobio,sonycybershott2}",46.067156,8.701128,54,"2008-07-25 09:56:18","2008-07-25 07:56:18",15,"e8f8d500e3",3184,4,4381928.34236108,670617.549593784,4570429.6855331
2667284723,"27354388@N08","San Pietro - Roma","{light,italy,rome,roma,church,italia,basilica,cupola,sanpietro,luce,stpeter,lazio,sonycybershott2}",41.902404,12.457187,55,"2008-07-12 18:28:19","2008-07-14 14:45:38",16,"9cd6c8c782",3275,4,4642318.62628659,1025538.50443063,4237541.81207748
2645757344,"27354388@N08","Paw","{sea,shells,art,beach,mare,nopeople,minimal,spiaggia,conchiglie,nolife,sonycybershott2}",42.403685,11.33686,44,"2008-07-05 13:40:51","2008-07-07 09:17:51",12,"2a64f2e8db",3141,4,4624844.03028802,927229.517366519,4278820.62491081
2644847219,"27354388@N08","Wave","{blue,sea,italy,beach,italia,mare,blu,wave,tuscany,toscana,spiaggia,onde,sonycybershott2}",42.403685,11.33686,61,"2008-07-05 09:29:51","2008-07-07 08:24:28",12,"1b4cefa41c",3132,4,4624844.03028802,927229.517366519,4278820.62491081
2627949334,"27354388@N08","La spiaggia","{sea,italy,italia,mare,blu,toscana,azzurro,grosseto,maremma,sonycybershott2}",42.552044,11.134235,159,"2008-06-29 08:56:03","2008-07-01 11:22:38",16,"1ed8ea7964",3185,4,4617174.60767241,908718.994949479,4290975.32558273
2627878172,"27354388@N08","Mare Mare","{sea,italy,italia,mare,blu,toscana,azzurro,grosseto,maremma,sonycybershott2}",42.552044,11.134235,74,"2008-06-29 08:54:13","2008-07-01 10:29:08",16,"a1ae6d21d7",3172,4,4617174.60767241,908718.994949479,4290975.32558273
2627858532,"27354388@N08","Mare","{sea,italy,italia,mare,blu,toscana,azzurro,grosseto,maremma,sonycybershott2}",42.552044,11.134235,38,"2008-06-29 08:54:41","2008-07-01 10:14:18",16,"8a2b3e1855",3105,4,4617174.60767241,908718.994949479,4290975.32558273
2624022803,"27354388@N08","Ant on the beach","{sea,beach,mare,colours,ant,colori,spiaggia,formica,sonycybershott2}",42.552649,11.135072,57,"2008-06-28 13:54:59","2008-06-30 13:32:46",16,"0526245495",3107,4,4617116.7389828,908777.667212423,4291024.83341746
2624531196,"27354388@N08","Starfish","{stella,red,sea,mare,starfish,toscana,rosso,talamone,sonycybershott2}",42.552649,11.135072,160,"2008-06-28 09:07:47","2008-06-30 10:39:42",16,"d3f1c7f06e",3181,4,4617116.7389828,908777.667212423,4291024.83341746
2603927860,"27354388@N08","Green","{plants,verde,green,nature,flora,natura,piante,naturalmente,top20greenish,sonycybershott2}",42.068561,12.764739,22,"2008-06-22 12:52:39","2008-06-23 09:34:05",16,"0e947fcc3d",2297,3,4624706.31175506,1047714.86370279,4251260.08726127
2603905858,"27354388@N08","Flower","{flower,verde,green,flora,colours,natura,fiore,colori,naturalmente,macrophotosnolimits,colourartaward,top20greenish,sonycybershott2}",42.068561,12.764739,70,"2008-06-22 12:38:48","2008-06-23 09:16:50",16,"8fea42080f",3275,4,4624706.31175506,1047714.86370279,4251260.08726127
1469526786,"14245034@N03","Fisherman","{blackandwhite,fish,reflection,photofaceoffwinner,pfogold}",43.710176,-80.37059,30,"2007-10-01 00:00:00","2007-10-01 19:05:55",16,"19f1481a98",1417,2,772439.602213235,-4552723.96894644,4384870.8292389
2586064365,"27354388@N08","Flower & Flower","{flowers,italy,rome,roma,italia,colours,fiori,colori,lazio,naturalmente,infiorata,castelliromani,genzano,sonycybershott2}",41.706241,12.689895,48,"2008-06-17 10:17:27","2008-06-17 08:17:27",14,"50b687bd65",3129,4,4652283.78585728,1047575.29274469,4221300.69083081
2586003263,"27354388@N08","Fishes","{flowers,italy,rome,roma,animals,italia,colours,pesci,fiori,fishes,colori,animali,lazio,naturalmente,infiorata,castelliromani,genzano,sonycybershott2}",41.706241,12.689895,48,"2008-06-17 09:30:31","2008-06-17 07:30:31",14,"a7a6e75da9",3040,4,4652283.78585728,1047575.29274469,4221300.69083081
5377374820,"7155157@N03","Physiotheraphy","{square,squareformat,iphoneography,instagramapp,uploaded:by=instagram,foursquare:venue=14195720}",3.128812,101.746953,7,"2011-01-21 22:28:53","2011-01-22 06:28:53",16,"07a251abd2",5002,6,-1296600.18865124,6235308.94555493,345797.647319721
5376759697,"7155157@N03","Fisioterapi","{square,squareformat,iphoneography,instagramapp,uploaded:by=instagram,foursquare:venue=7297138}",3.118182,101.672527,12,"2011-01-21 22:17:49","2011-01-22 06:17:49",16,"a580e2a0cc",5086,6,-1288512.52119743,6237050.66381599,344623.953948882
5376722975,"7155157@N03","Starbuck","{square,squareformat,iphoneography,instagramapp,uploaded:by=instagram,foursquare:venue=14195720}",3.128812,101.746953,15,"2011-01-21 21:52:00","2011-01-22 05:52:00",16,"7ea710edce",5241,6,-1296600.18865124,6235308.94555493,345797.647319721
5375324678,"7155157@N03","Helmet","{square,squareformat,iphoneography,instagramapp,uploaded:by=instagram,foursquare:venue=1304539}",3.164705,101.693251,8,"2011-01-21 04:26:29","2011-01-21 12:26:29",16,"9725f05842",5042,6,-1290711.25375826,6236308.13026618,349760.62544895
5372438409,"7155157@N03","My marathon movie for today!!","{square,squareformat,iphoneography,instagramapp,uploaded:by=instagram,foursquare:venue=448933}",3.158068,101.712633,11,"2011-01-20 07:46:49","2011-01-20 15:46:49",16,"3dd4d46017",5048,6,-1292829.01271535,6235910.78305569,349027.838453532
5363482873,"7155157@N03","Eyaaarghhhh!!!!","{square,squareformat,iphoneography,instagramapp,uploaded:by=instagram,foursquare:venue=12248701}",3.097766,101.71232,15,"2011-01-17 07:43:55","2011-01-17 15:43:55",16,"e45aa8c1d9",5210,6,-1292868.80627903,6236274.11434111,342369.723461867
5363918348,"7155157@N03","Dewan makan","{square,squareformat,iphoneography,instagramapp,uploaded:by=instagram,foursquare:venue=1537677}",2.951684,101.68968,12,"2011-01-17 06:29:37","2011-01-17 14:29:37",16,"955e664da3",5204,6,-1290577.18615829,6237619.1789115,326238.868693717
5351860256,"7155157@N03","The Satay","{square,squareformat,iphoneography,instagramapp,uploaded:by=instagram,foursquare:venue=1325313}",3.103165,101.708648,11,"2011-01-13 03:53:01","2011-01-13 11:53:01",16,"be665f0b05",5050,6,-1292462.57739099,6236325.34110445,342965.857632252
3641607402,"33475211@N04","","{}",34.174565,-118.472453,2,"2009-06-06 13:00:04","2009-06-19 15:20:11",15,"e0f6d78aa9",3664,4,-2518314.06875405,-4643480.09335047,3562483.06475632
3640798233,"33475211@N04","","{lake,reeds,marsh}",34.174565,-118.472453,4,"2009-06-06 13:00:03","2009-06-19 15:19:54",15,"55b10e4a96",3392,4,-2518314.06875405,-4643480.09335047,3562483.06475632
3640797667,"33475211@N04","","{lake,water}",34.174565,-118.472453,2,"2009-06-06 13:00:02","2009-06-19 15:19:37",15,"cf9c6b036c",2462,3,-2518314.06875405,-4643480.09335047,3562483.06475632
3640796983,"33475211@N04","","{tree}",34.173349,-118.472346,3,"2009-06-06 13:00:01","2009-06-19 15:19:16",15,"1807d16bfc",3656,4,-2518341.51738119,-4643551.39833129,3562371.46917349
3641604838,"33475211@N04","","{}",34.173349,-118.472346,2,"2009-06-06 13:00:00","2009-06-19 15:19:00",15,"a0b2ee7375",3639,4,-2518341.51738119,-4643551.39833129,3562371.46917349
3614372290,"33475211@N04","","{tree,canopy}",34.194978,-118.57773,2,"2009-06-02 12:36:40","2009-06-10 16:11:10",16,"1b37d9bcbd",3349,4,-2526233.30575691,-4637727.78684662,3564356.18373632
5351246339,"7155157@N03","The A.B.C","{square,squareformat,iphoneography,instagramapp,uploaded:by=instagram,foursquare:venue=1325313}",3.103165,101.708648,10,"2011-01-13 03:52:17","2011-01-13 11:52:17",16,"147181654c",5090,6,-1292462.57739099,6236325.34110445,342965.857632252
5345707305,"7155157@N03","Peace","{square,squareformat,iphoneography,instagramapp,uploaded:by=instagram,foursquare:venue=1814027}",3.164126,101.703486,9,"2011-01-11 06:13:15","2011-01-11 14:13:15",16,"32f9f571b2",5162,6,-1291825.96953464,6236080.92603737,349696.698606111
5341976100,"7155157@N03","Sistem s","{square,squareformat,iphoneography,instagramapp,uploaded:by=instagram,foursquare:venue=13047704}",2.938779,101.693328,8,"2011-01-09 20:44:09","2011-01-10 04:44:09",16,"17304d116d",5205,6,-1290989.19056241,6237608.79517516,324813.75475165
5341956008,"7155157@N03","Do you.?","{square,squareformat,iphoneography,instagramapp,uploaded:by=instagram,foursquare:venue=13047704}",2.938779,101.693328,8,"2011-01-09 20:35:47","2011-01-10 04:35:47",16,"821974e81b",5050,6,-1290989.19056241,6237608.79517516,324813.75475165
5341934914,"7155157@N03","Asfasya","{square,squareformat,iphoneography,instagramapp,uploaded:by=instagram,foursquare:venue=13047704}",2.938779,101.693328,13,"2011-01-09 20:27:45","2011-01-10 04:27:45",16,"a15e695583",5284,6,-1290989.19056241,6237608.79517516,324813.75475165
5341928682,"7155157@N03","Bilik bilik","{square,squareformat,iphoneography,instagramapp,uploaded:by=instagram,foursquare:venue=9602405}",2.939055,101.69206,11,"2011-01-09 20:25:23","2011-01-10 04:25:23",16,"83412e83a4",5002,6,-1290850.83002808,6237635.83194217,324844.23391725
5335581672,"7155157@N03","Having a mushroom soup","{square,squareformat,iphoneography,instagramapp,uploaded:by=instagram,foursquare:venue=5370095}",3.124897,101.727778,19,"2011-01-08 02:06:29","2011-01-08 10:06:29",16,"81fb7aa39a",5085,6,-1294518.1644785,6235765.646484,345365.380608029
5333433860,"7155157@N03","Day 7 | Printed Memories","{}",3.097898,101.712903,19,"2011-01-07 23:50:50","2011-01-07 15:54:04",16,"fc0d234ee4",5042,6,-1292932.1018505,6236260.18635925,342384.298365076
5326361993,"7155157@N03","Rutin harian","{square,squareformat,iphoneography,instagramapp,uploaded:by=instagram,foursquare:venue=2713791}",3.096884,101.706401,7,"2011-01-05 03:31:58","2011-01-05 11:31:58",16,"9f3926494b",5044,6,-1292225.62381799,6236412.80233459,342272.336562907
5323671854,"7155157@N03","Up","{square,squareformat,iphoneography,instagramapp,uploaded:by=instagram,foursquare:venue=5654648}",3.158072,101.713109,6,"2011-01-04 04:10:34","2011-01-04 12:10:34",16,"d045b90352",5121,6,-1292880.81421922,6235900.01845813,349028.280092399
5323669114,"7155157@N03","Up","{square,squareformat,iphoneography,instagramapp,uploaded:by=instagram,foursquare:venue=5654648}",3.158072,101.713109,3,"2011-01-04 04:09:04","2011-01-04 12:09:04",16,"30b34630b8",5169,6,-1292880.81421922,6235900.01845813,349028.280092399
5319257669,"7155157@N03","10 tahun dahulu","{square,squareformat,iphoneography,instagramapp,uploaded:by=instagram,foursquare:venue=12102494}",3.195102,101.763509,10,"2011-01-03 03:20:43","2011-01-03 11:20:43",16,"5fa8067301",5247,6,-1298319.43852819,6234538.19294338,353116.680183199
5285904102,"7155157@N03","Which way?","{square,squareformat,iphoneography,instagramapp,uploaded:by=instagram,foursquare:venue=7747510}",3.141714,101.749121,8,"2010-12-23 08:04:17","2010-12-23 16:04:17",16,"0d9f432c96",5247,6,-1296820.23505558,6235183.48471302,347222.184031979
5285301057,"7155157@N03","Sape dapat bace dia hebat!","{square,squareformat,iphoneography,instagramapp,uploaded:by=instagram,foursquare:venue=12248701}",3.097766,101.71232,10,"2010-12-23 08:01:29","2010-12-23 16:01:29",16,"ea1bab5641",5010,6,-1292868.80627903,6236274.11434111,342369.723461867
5285298353,"7155157@N03","Apekah?","{square,squareformat,iphoneography,instagramapp,uploaded:by=instagram,foursquare:venue=12248701}",3.097766,101.71232,7,"2010-12-23 08:00:12","2010-12-23 16:00:12",16,"ce67f528ae",5046,6,-1292868.80627903,6236274.11434111,342369.723461867
5408615083,"23877975@N04","DSC_7037","{garden,day,september,september2010}",39.106833,-84.637333,2,"2010-09-16 18:27:11","2011-02-02 00:19:38",16,"34fe922727",5220,6,463172.220396385,-4934163.4514683,4001527.18545438
1469528514,"14245034@N03","Check the Map","{mountain,river,map,hike,adventure,explore,trail,backpack}",50.647283,-116.557044,58,"2007-10-01 00:00:00","2007-10-01 19:06:26",12,"9792f69907",1068,2,-1811803.31717961,-3624873.00041758,4908757.66459506
1468673567,"14245034@N03","Ski Bunny","{}",50.454115,-116.218528,39,"2006-01-14 14:06:26","2007-10-01 19:06:08",12,"ed516827d1",1153,2,-1797685.86713117,-3650399.7754626,4895104.33587874
1451398726,"14245034@N03","Friendly Local","{cute,furry,chipmunk,squirl}",51.302816,-117.106983,22,"2007-10-01 00:00:00","2007-09-28 04:46:36",16,"f0aaf3ecdc",1158,2,-1820697.0166681,-3556884.90662654,4954676.28132491
1450399041,"14245034@N03","Calgary Airport","{calgary,window,plane,airport,view,wing,photofaceoffwinner,pfogold}",51.112521,-114.005041,142,"2007-10-01 00:00:00","2007-09-28 04:09:33",13,"e8bf14beee",1072,2,-1632269.76417837,-3665270.00748079,4941412.82520762
1469886744,"14245034@N03","Moss","{green,moss}",50.614671,-116.094846,9,"2006-12-18 15:12:09","2007-09-27 20:52:06",13,"20db43609b",1028,2,-1783736.8910983,-3641889.18191351,4906456.50645312
1468679601,"14245034@N03","Orange Flower","{orange,flower}",50.482305,-116.142139,16,"2007-10-01 00:00:00","2007-09-27 19:07:49",13,"3812b60561",1315,2,-1791751.79959136,-3650622.13099518,4897100.29301151
5284952657,"7155157@N03","December issue","{square,squareformat,iphoneography,instagramapp,uploaded:by=instagram,foursquare:venue=14227426}",3.100796,101.708829,7,"2010-12-23 04:51:31","2010-12-23 12:51:31",16,"b2b07bfab8",5087,6,-1292485.1549585,6236335.13858409,342704.28329119
5280634236,"7155157@N03","Koleksi yda musica","{square,squareformat,iphoneography,instagramapp,uploaded:by=instagram,foursquare:venue=12248701}",3.097766,101.71232,6,"2010-12-21 07:54:13","2010-12-21 15:54:13",16,"8ec75e40bf",5284,6,-1292868.80627903,6236274.11434111,342369.723461867
5276712167,"7155157@N03","Gud nite..^_^","{square,squareformat,iphoneography,instagramapp,uploaded:by=instagram,foursquare:venue=12248701}",3.097766,101.71232,5,"2010-12-20 05:11:16","2010-12-20 13:11:16",16,"5309ae6143",5283,6,-1292868.80627903,6236274.11434111,342369.723461867
5265421875,"7155157@N03","Shopping time","{square,squareformat,iphoneography,instagramapp,uploaded:by=instagram,foursquare:venue=1291171}",25.325679,51.531414,4,"2010-12-16 03:06:33","2010-12-16 11:06:33",16,"12eae14ddb",5043,6,3588608.43937125,4516579.86249852,2711727.99646032
5264187957,"7155157@N03","Camel","{square,squareformat,iphoneography,instagramapp,uploaded:by=instagram,foursquare:venue=13694348}",25.286823,51.532729,4,"2010-12-15 14:37:00","2010-12-15 22:37:00",16,"c38dc015a4",5208,6,3589649.33902341,4518102.82245546,2707836.69212881
5262951243,"7155157@N03","Done","{square,squareformat,iphoneography,instagramapp,uploaded:by=instagram,foursquare:venue=727423}",25.267207,51.558322,3,"2010-12-15 05:19:51","2010-12-15 13:19:51",16,"ce33cd1d67",5170,6,3588207.69307874,4520432.54327933,2705871.74641073
5256989106,"7155157@N03","Arab Man","{square,squareformat,iphoneography,instagramapp,uploaded:by=instagram,foursquare:venue=1039020}",25.380113,51.531128,29,"2010-12-12 21:38:31","2010-12-13 05:38:31",16,"ff7acec9e2",5205,6,3587024.72360118,4514540.34929896,2717177.32190188
5256361161,"7155157@N03","Hohoho","{square,squareformat,iphoneography,instagramapp,uploaded:by=instagram,foursquare:venue=1039020}",25.380113,51.531128,3,"2010-12-12 21:30:21","2010-12-13 05:30:21",16,"e9bb795838",5127,6,3587024.72360118,4514540.34929896,2717177.32190188
5254692996,"7155157@N03","Jubah boy","{square,squareformat,iphoneography,instagramapp,uploaded:by=instagram,foursquare:venue=2042177}",25.281892,51.517541,14,"2010-12-12 08:07:21","2010-12-12 16:07:21",16,"8085e16fe2",5089,6,3590992.05482732,4517333.74894243,2707342.78049471
5254685168,"7155157@N03","Ahlan wahsahlan","{square,squareformat,iphoneography,instagramapp,uploaded:by=instagram,foursquare:venue=13694348}",25.286823,51.532729,5,"2010-12-12 08:04:30","2010-12-12 16:04:30",16,"676b959e86",5010,6,3589649.33902341,4518102.82245546,2707836.69212881
5254677602,"7155157@N03","Im a porter","{}",25.287353,51.543962,6,"2010-12-12 08:01:45","2010-12-12 16:01:45",16,"3f5aa8291b",5243,6,3588747.88617521,4518786.85752187,2707889.77819045
5254060453,"7155157@N03","The porter","{square,iphoneography}",25.286823,51.532729,6,"2010-12-12 07:59:26","2010-12-12 15:59:26",16,"c950852666",5202,6,3589649.33902341,4518102.82245546,2707836.69212881
5254024281,"7155157@N03","Al unta paddang passirrr","{square,squareformat,iphoneography,instagramapp,uploaded:by=instagram,foursquare:venue=13694348}",25.286823,51.532729,6,"2010-12-12 07:46:05","2010-12-12 15:46:05",16,"319157e5a2",5209,6,3589649.33902341,4518102.82245546,2707836.69212881
5254631972,"7155157@N03","Aladdin lamp","{square,squareformat,iphoneography,instagramapp,uploaded:by=instagram,foursquare:venue=13694348}",25.286823,51.532729,7,"2010-12-12 07:44:58","2010-12-12 15:44:58",16,"f88d0555ed",5166,6,3589649.33902341,4518102.82245546,2707836.69212881
5251337616,"7155157@N03","Restricted","{square,squareformat,iphoneography,instagramapp,uploaded:by=instagram,foursquare:venue=10616107}",25.212322,55.282329,7,"2010-12-11 04:02:11","2010-12-11 12:02:11",16,"92e4bd2032",5046,6,3288503.66080908,4746074.23284427,2700372.22641986
5250433092,"7155157@N03","Story","{square,squareformat,iphoneography,instagramapp,uploaded:by=instagram,foursquare:venue=8832952}",25.252947,55.354564,2,"2010-12-10 17:10:18","2010-12-11 01:10:18",16,"0c3b7dfec1",5282,6,3281426.85873564,4748638.12248078,2704443.11814989
5250422640,"7155157@N03","Solat","{square,squareformat,iphoneography,instagramapp,uploaded:by=instagram,foursquare:venue=8833089}",25.252872,55.354714,4,"2010-12-10 17:03:59","2010-12-11 01:03:59",16,"b0e4549078",5087,6,3281416.44180169,4748649.62917029,2704435.60389046
5249817195,"7155157@N03","Transit mode","{square,squareformat,iphoneography,instagramapp,uploaded:by=instagram,foursquare:venue=8833089}",25.252872,55.354714,4,"2010-12-10 17:02:28","2010-12-11 01:02:28",16,"742166bf65",5084,6,3281416.44180169,4748649.62917029,2704435.60389046
5171379356,"37452801@N00","Chicken for sale, Qila Abdullah","{summer,people,june,work,shot,assignment,roadtrip,streetscene,read,killa,lonelyplanet,sell,midday,selling,peopleshots,ppa,balochistan,ameerhamzaphotography,travelsacrossbalochistan,pakgateway,pakistanistreet,travelsbyroad}",30.709002,66.641178,406,"2010-06-03 10:39:03","2010-11-13 07:30:44",12,"e9115a39f7",4108,5,2176140.20801489,5038695.54592952,3238197.45215141
5250418702,"7155157@N03","Transit mode","{square,squareformat,iphoneography,instagramapp,uploaded:by=instagram,foursquare:venue=8833089}",25.252872,55.354714,3,"2010-12-10 17:01:23","2010-12-11 01:01:23",16,"4d155bd638",5090,6,3281416.44180169,4748649.62917029,2704435.60389046
5208932859,"7155157@N03","Hanging snow","{square,squareformat,iphoneography,instagramapp,uploaded:by=instagram}",3.142722,101.710513,12,"2010-11-26 09:01:48","2010-11-26 17:01:48",16,"1d6ae74891",5166,6,-1292617.2053079,6236049.93159381,347333.478687236
5371645227,"23877975@N04","DSC_0405 - Version 5","{}",39.083297,-84.51007,1,"2010-11-27 00:52:36","2011-01-20 06:53:53",15,"b3fa020ef3",5170,6,474288.265982007,-4934762.66404947,3999499.30949791
5241713532,"7155157@N03","Rindu""A friend is a hand that is always holding yours, no matter how close or far apart you may be. A friend is someone who is always there and will always, always care. A friend is a feeling of forever in the heart.""","{square,squareformat,iphoneography,instagramapp,uploaded:by=instagram,foursquare:venue=8206498}",3.069352,101.767859,63,"2010-12-07 09:25:27","2010-12-07 17:25:27",16,"2701df03af",5130,6,-1298947.72758143,6235183.41756042,339232.323806566
5240762911,"7155157@N03","Its a rainbow!!!","{}",3.093152,101.684907,9,"2010-12-07 06:59:25","2010-12-07 14:59:25",16,"9ebb261f09",5123,6,-1289890.51096514,6236918.94980606,341860.263226645
5241314878,"7155157@N03","","{}",3.093152,101.684907,6,"2010-12-07 22:40:47","2010-12-07 14:40:46",16,"d7c2a71c40",5208,6,-1289890.51096514,6236918.94980606,341860.263226645
4962730246,"90752295@N00","","{}",41.012533,-73.877502,17,"2010-09-05 23:42:09","2010-09-06 03:42:46",16,"9fee2cdbf6",4141,5,1338385.45588803,-4630120.75347163,4163473.53589951
4962729192,"90752295@N00","","{}",41.012533,-73.877502,22,"2010-09-05 23:41:42","2010-09-06 03:42:20",16,"80f1399c37",4105,5,1338385.45588803,-4630120.75347163,4163473.53589951
2652230919,"22778235@N00","rhubarb upside down buttermilk cake","{cake,yum,heart,rhubarb,buttermilkcake}",48.120554,-122.770242,492,"2008-07-07 08:05:37","2008-07-09 14:39:18",12,"08ae02e617",3019,4,-2308927.47551985,-3586844.00832402,4725835.25799774
2637773496,"22778235@N00","bing cherry cake - extreme closeup","{cake,cherry,whitechocolate,buttercream,whitecake,chocolateleaves}",48.120554,-122.770242,992,"2008-07-04 13:04:35","2008-07-04 23:02:38",12,"04d6ffc920",3014,4,-2308927.47551985,-3586844.00832402,4725835.25799774
2636944583,"22778235@N00","bing cherry cake","{cake,cherry,whitechocolate,chocolateleaves}",48.120554,-122.770242,1746,"2008-07-04 13:01:12","2008-07-04 23:01:16",12,"8dbc67fab6",3071,4,-2308927.47551985,-3586844.00832402,4725835.25799774
5372250352,"23877975@N04","DSC_0405 - Version 4_ps","{}",39.083297,-84.51007,2,"2010-11-27 00:52:36","2011-01-20 06:53:46",15,"d558ae1eef",5250,6,474288.265982007,-4934762.66404947,3999499.30949791
2497563762,"22778235@N00","sunflower reception","{sunflower,sistercity}",48.10445,-122.774019,455,"2008-05-15 19:07:06","2008-05-16 16:45:10",12,"13432bccf5",3008,4,-2309885.53946261,-3587812.64493514,4724639.69836231
2497563584,"22778235@N00","sunflower sugar cubes","{sugar,sunflower,sistercity}",48.10445,-122.774019,588,"2008-05-15 19:08:27","2008-05-16 16:45:05",12,"21f7af0079",2360,3,-2309885.53946261,-3587812.64493514,4724639.69836231
2496712227,"22778235@N00","sunflower butter cookies","{cookie,sunflower,cookiecutter,sistercity}",48.10445,-122.774019,1184,"2008-05-15 19:03:53","2008-05-16 16:30:55",12,"7c6c797ffb",2246,3,-2309885.53946261,-3587812.64493514,4724639.69836231
2497537840,"22778235@N00","sunflower banana cake with sour cream ganache","{sunflower,sistercity,sunflowercake}",48.10445,-122.774019,414,"2008-05-15 19:03:30","2008-05-16 16:30:47",12,"a53f9b6be8",2245,3,-2309885.53946261,-3587812.64493514,4724639.69836231
2497537210,"22778235@N00","poundcake mini-sunflowers","{sunflower,poundcake,sistercity,sunflowercake}",48.10445,-122.774019,371,"2008-05-15 19:03:02","2008-05-16 16:30:27",12,"3c7353f146",3267,4,-2309885.53946261,-3587812.64493514,4724639.69836231
2497536944,"22778235@N00","sunflower cupcakes","{cupcake,sunflower,cupcaketower,sistercity,sunflowercupcake}",48.10445,-122.774019,1278,"2008-05-15 19:02:11","2008-05-16 16:30:13",12,"5ba845306e",2118,3,-2309885.53946261,-3587812.64493514,4724639.69836231
2497536734,"22778235@N00","sunflower cupcakes","{cupcake,sunflower,sistercity,sunflowercupcake}",48.10445,-122.774019,452,"2008-05-15 19:01:57","2008-05-16 16:30:07",12,"6a31e0c388",2416,3,-2309885.53946261,-3587812.64493514,4724639.69836231
2497536216,"22778235@N00","sunflower-stamped shortbread","{cookie,sunflower,shortbread,sistercity,stampedshortbread}",48.10445,-122.774019,333,"2008-05-15 19:01:19","2008-05-16 16:29:51",12,"0104b6b8a7",2401,3,-2309885.53946261,-3587812.64493514,4724639.69836231
5068162621,"33969213@N06","","{vienna,canoneos500n,ottakring,kodakportranc160}",48.212963,16.313388,78,"2010-09-19 11:29:02","2010-10-10 18:56:00",13,"28242442ee",4105,5,4086658.74468842,1196059.27928806,4732688.51209055
5240719347,"7155157@N03","","{}",3.093152,101.684907,6,"2010-12-07 22:40:14","2010-12-07 14:40:35",16,"67bf075bba",5284,6,-1289890.51096514,6236918.94980606,341860.263226645
5055208636,"33969213@N06","the crystal","{toronto,ontario,royalontariomuseum,daniellibeskind,canoneos500n,kodakportranc160}",43.668399,-79.395704,92,"2010-07-14 11:24:15","2010-10-06 11:37:00",15,"26585a9ec2",4151,5,850378.543691449,-4542074.02616021,4381514.44565568
5048112036,"33969213@N06","shooting at Cloud Gate.","{chicago,illinois,canoneos500n,ilfordxpii}",41.882086,-87.62176,119,"2010-07-07 11:26:53","2010-10-05 14:25:00",14,"8af6a58ea6",4124,5,197345.65887177,-4751656.21227988,4235861.8871444
5047480747,"33969213@N06",".","{chicago,illinois,canoneos500n,rollei400,ilfordmicrophen}",41.942526,-87.640492,102,"2010-07-09 16:45:00","2010-10-03 17:40:00",15,"0010426e73",4152,5,195607.546873238,-4747239.93556442,4240857.61110795
5042500560,"33969213@N06","hey girls!","{mainz,canoneos500n,ilfordxpii}",49.999436,8.274056,70,"2010-09-04 11:08:18","2010-10-03 17:09:00",15,"2ffd8d4d0a",4132,5,4065153.10881801,591161.917566753,4862748.71335329
5044304636,"33969213@N06","grow up","{mainz,canoneos500n,ilfordxpii}",50.006939,8.264679,66,"2010-09-04 13:13:50","2010-10-02 13:39:00",15,"7a65d69371",4086,5,4064617.10953503,590404.706840658,4863285.11755361
5036961820,"33969213@N06","lost","{mainz,canoneos500n,ilfordxpii}",49.999973,8.27462,91,"2010-09-04 16:48:25","2010-10-01 17:05:00",15,"e538e58110",4152,5,4065102.01011889,591195.348457027,4862787.10729596
5036295353,"33969213@N06","","{mainz,canoneos500n,ilfordxpii}",50.00396,8.271932,61,"2010-09-04 12:44:53","2010-09-29 19:33:00",15,"da1fc961b1",4149,5,4064793.5478055,590955.758647981,4863072.15293314
5240717715,"7155157@N03","Sabrina with her drawing","{}",3.093152,101.684907,3,"2010-12-07 22:35:42","2010-12-07 14:39:50",16,"493b698d22",5283,6,-1289890.51096514,6236918.94980606,341860.263226645
5226493202,"7155157@N03","My Endless Love","{square,squareformat,iphoneography,instagramapp,uploaded:by=instagram}",3.152584,101.759097,9,"2010-12-02 06:03:54","2010-12-02 14:03:54",16,"71b10d1ccf",5086,6,-1297892.39999846,6234892.99126197,348422.349999526
5225525603,"7155157@N03","Home sweet Home","{square,squareformat,iphoneography,instagramapp,uploaded:by=instagram}",2.997759,101.653327,10,"2010-12-02 01:54:34","2010-12-02 09:54:34",16,"e4455fa66a",5287,6,-1286565.87906045,6238177.81908097,331326.85093308
5217029701,"7155157@N03","Bunga = Flower","{square,squareformat,iphoneography,instagramapp,uploaded:by=instagram}",2.951684,101.68968,6,"2010-11-29 02:29:18","2010-11-29 10:29:18",16,"c900fe4dbb",4090,5,-1290577.18615829,6237619.1789115,326238.868693717
5217573232,"7155157@N03","RM in da house..~~","{square,squareformat,iphoneography,instagramapp,uploaded:by=instagram}",2.951684,101.68968,7,"2010-11-29 01:57:48","2010-11-29 09:57:48",16,"9da2ce19d5",4108,5,-1290577.18615829,6237619.1789115,326238.868693717
5214273401,"7155157@N03","""The frog does not jump in the daytime without reason.""","{square,squareformat,iphoneography,instagramapp,uploaded:by=instagram}",3.101358,101.705525,19,"2010-11-28 08:01:14","2010-11-28 16:01:14",16,"550caf7862",5002,6,-1292124.84825053,6236406.36829352,342766.336859268
5208930187,"7155157@N03","Christmas is coming","{square,squareformat,iphoneography,instagramapp,uploaded:by=instagram}",3.142722,101.710513,5,"2010-11-26 09:00:42","2010-11-26 17:00:42",16,"c264387fd6",5128,6,-1292617.2053079,6236049.93159381,347333.478687236
5033068187,"33969213@N06","Feinripp","{vienna,kodak400,canoneos500n}",48.215365,16.314525,81,"2010-09-14 17:08:49","2010-09-29 15:28:00",15,"1ec8e95e1f",4112,5,4086443.87530804,1196084.43236778,4732866.48645991
5026541497,"33969213@N06","von irgendwo","{vienna,kodak400,canoneos500n}",48.197332,16.3383,76,"2010-09-16 17:09:20","2010-09-28 15:35:00",15,"41f86e784c",4088,5,4087381.78815925,1198200.5499176,4731530.14289115
5026561421,"33969213@N06","Feierabend","{vienna,kodak400,canoneos500n}",48.197196,16.3383,74,"2010-09-16 17:17:58","2010-09-27 17:31:00",15,"71bbf4344b",4129,5,4087392.60583964,1198203.72107979,4731520.06277849
5025591764,"33969213@N06","","{vienna,kodak400,canoneos500n}",48.187112,16.373662,121,"2010-09-12 12:39:05","2010-09-26 08:42:00",15,"be63cb62ac",4104,5,4087454.20528496,1200961.77163676,4730772.57819794
5020308455,"33969213@N06","","{vienna,doubleexposure,kodak400,canoneos500n}",48.197847,16.367526,78,"2010-09-12 13:50:29","2010-09-25 06:38:00",15,"2af11fe853",4089,5,4086729.10831302,1200273.29682433,4731568.31366562
5020751780,"33969213@N06","Herr Dinga","{vienna,kodak400,canoneos500n,ottakring}",48.214235,16.306886,105,"2010-09-19 11:39:02","2010-09-24 15:48:00",14,"6f7b55b087",4144,5,4086693.22928814,1195565.90036179,4732782.76099708
5017771435,"33969213@N06","intim.","{vienna,kodak400,canoneos500n}",48.196474,16.338987,125,"2010-09-18 12:16:08","2010-09-23 18:25:00",14,"6f466e322e",4124,5,4087435.66715514,1198269.56622994,4731466.5487952
5014441349,"33969213@N06","killerladies","{vienna,kodak400,canoneos500n}",48.203701,16.363929,90,"2010-09-11 12:13:56","2010-09-22 15:13:56",15,"b6d0e561d2",4089,5,4086338.85061717,1199880.01595524,4732002.17375978
5011636505,"33969213@N06","","{vienna,neopan400,canoneos500n,ilfordmicrophen}",48.212205,16.361303,98,"2010-08-28 13:31:12","2010-09-21 16:33:00",14,"987bcb3af0",4128,5,4085717.38203552,1199494.13224734,4732632.34693754
5008813572,"33969213@N06","directions","{vienna,holga120cfn,ilfordxpii}",48.206185,16.36156,90,"2010-09-11 13:57:03","2010-09-21 13:30:00",14,"d9d730bb40",4147,5,4086190.87622297,1199653.05011095,4732186.25670302
5005565812,"33969213@N06","trأ¤umen mأ¼ssen.","{vienna,holga120cfn,ilfordxpii}",48.198162,16.361989,68,"2010-09-11 14:07:30","2010-09-20 08:23:00",14,"181ec5c59b",4152,5,4086820.029387,1199870.99887767,4731591.66065093
5004203342,"33969213@N06","scalp therapy","{toronto,holga120cfn,fomapan400}",43.66843,-79.385704,63,"2010-07-13 16:19:00","2010-09-19 19:15:00",14,"2816a75d5e",4126,5,851170.834141897,-4541923.20040056,4381516.93706756
5003564345,"33969213@N06","","{b,toronto,holga120cfn,fomapan400}",43.637876,-79.381713,76,"2010-07-12 15:12:03","2010-09-19 11:22:00",13,"12616f41cc",4148,5,851919.000839421,-4544167.11660716,4379060.75171471
5001681172,"33969213@N06","ja.","{mainz,canoneos500n,ilfordxpii}",49.963789,8.287725,82,"2010-09-04 16:22:12","2010-09-18 16:32:00",15,"6c13465f27",4087,5,4068016.77380447,592569.417942458,4860199.10530839
4999136132,"33969213@N06","o  آ°آ°","{mainz,canoneos500n,ilfordxpii}",50.000926,8.277597,79,"2010-09-05 12:53:09","2010-09-17 17:37:00",13,"28faf1d19e",4125,5,4064990.93074268,591394.873437037,4862855.24298517
4992852989,"33969213@N06","flight attendant","{canoneos500n,ilfordxpii}",50.05182,8.564271,84,"2010-09-05 15:29:38","2010-09-15 15:44:00",13,"5dbbd2fb41",4090,5,4057691.2576784,611080.145139827,4866492.01425136
4990450180,"33969213@N06","Abschied","{vienna,doubleexposure,neopan400,canoneos500n,ilfordmicrophen}",48.19646,16.339223,67,"2010-08-28 13:35:49","2010-09-14 16:29:00",15,"74babfc3c3",4084,5,4087431.84504112,1198286.72873041,4731465.51112055
4987922294,"33969213@N06",".","{passau,canoneos500n,kodakportranc160}",48.574129,13.455655,70,"2010-08-21 13:32:10","2010-09-13 20:44:00",15,"da32203ffd",4151,5,4112002.62642927,983839.125974321,4759355.7417616
4984072032,"33969213@N06","last days in august","{neopan400,passau,canoneos500n}",48.575499,13.468079,60,"2010-08-21 16:05:57","2010-09-13 14:57:00",15,"b6e9302834",4152,5,4111678.10361909,984704.143199335,4759456.54023226
4984074238,"33969213@N06","Stehcafe","{neopan400,passau,canoneos500n,ilfordmicrophen}",48.574413,13.466899,78,"2010-08-21 13:02:06","2010-09-12 20:18:00",15,"5f8be486ef",4088,5,4111786.44496571,984640.551551363,4759376.63743343
4979237180,"33969213@N06","the ground below","{neopan400,passau,canoneos500n,scanfromprint,ilfordmicrophen,f1112sek}",48.578906,13.46913,67,"2010-08-21 17:43:18","2010-09-11 09:52:00",15,"385822b308",4088,5,4111383.7637363,984713.394559589,4759707.20031123
4973935735,"33969213@N06","am Bordstein.","{neopan400,passau,canoneos500n,ilfordmicrophen}",48.574427,13.465955,90,"2010-08-21 16:52:16","2010-09-10 07:50:00",15,"80b194a2d9",4108,5,4111801.53201782,984572.534168992,4759377.66749875
4974494316,"33969213@N06","the muse","{neopan400,passau,canoneos500n,ilfordmicrophen}",48.575613,13.466835,36,"2010-08-21 15:08:52","2010-09-09 16:37:00",14,"0dc83f04e6",4112,5,4111690.23824087,984612.656962065,4759464.92772021
4964102027,"33969213@N06","Neugierig?","{passau,canoneos500n,kodakportranc160}",48.574165,13.45366,58,"2010-08-21 11:56:28","2010-09-06 17:59:00",14,"1302525cc0",4140,5,4112033.96122598,983695.249878839,4759358.39051517
4951762915,"33969213@N06","zoom.","{vienna,canoneos500n,kodakportranc160}",48.202681,16.3589,40,"2010-08-14 11:12:50","2010-09-06 13:29:00",13,"d2eb615b83",4083,5,4086525.28310896,1199545.15782772,4731926.58158299
4948721915,"33969213@N06","the window","{}",48.210089,16.335811,51,"2010-08-14 10:34:00","2010-09-03 17:04:00",13,"43bbd94f62",4078,5,4086419.00515129,1197725.54198155,4732475.55436624
4945599742,"33969213@N06","hipp, hipp, hurra!","{vienna,canoneos500n,kodakportranc160}",48.211018,16.339309,82,"2010-08-14 10:51:10","2010-09-01 09:33:00",15,"5032583f09",4129,5,4086271.96503815,1197953.35455828,4732544.39272721
4944945515,"33969213@N06","","{vienna,canoneos500n,brunnenmarkt,kodakportranc160}",48.21302,16.336519,77,"2010-08-14 12:23:42","2010-08-31 15:29:00",15,"73f247653e",4109,5,4086171.01301094,1197707.68611712,4732692.73555819
4938971218,"33969213@N06","how to become a good husband.","{vienna,canoneos500n,brunnenmarkt,kodakportranc160}",48.213512,16.335834,109,"2010-08-14 11:10:28","2010-08-30 17:59:00",15,"66c58e2cf8",4093,5,4086146.18699481,1197647.36043455,4732729.19055888
4933890985,"33969213@N06","divided","{vienna,canoneos500n,kodakportranc160}",48.202996,16.360874,87,"2010-08-15 12:05:13","2010-08-30 13:21:00",14,"071fdb8038",4135,5,4086458.89803003,1199678.59386235,4731949.92638503
4937746863,"33969213@N06","accident","{vienna,canoneos500n,kodakportranc160}",48.203182,16.358685,152,"2010-08-15 12:53:52","2010-08-29 16:00:00",14,"547da0d444",4082,5,4086489.93449242,1199518.1260798,4731963.71086801
4933864305,"33969213@N06","three Sunday afternoons.","{vienna,stadtpark,canoneos500n,kodakportranc160}",48.203768,16.379156,121,"2010-08-08 11:25:11","2010-08-28 09:47:00",14,"b2aa8466db",4141,5,4086014.49593155,1200964.39801056,4732007.13907604
5372249342,"23877975@N04","DSC_0396","{}",39.083297,-84.51007,1,"2010-11-27 00:50:17","2011-01-20 06:53:00",15,"20fed13408",5046,6,474288.265982007,-4934762.66404947,3999499.30949791
4932320606,"33969213@N06","meet me at the bus station","{canada,montrأ©al,canoneos500n,kodakportranc160}",45.5137,-73.568787,54,"2010-07-20 10:54:39","2010-08-27 15:06:00",14,"3b8d0d8348",4082,5,1266393.82448102,-4294198.77206145,4527536.30919434
4927234718,"33969213@N06","fruits et lأ©gumes.","{canada,montrأ©al,canoneos500n,kodakportranc160}",45.511715,-73.56338,58,"2010-07-20 14:56:32","2010-08-26 19:18:00",14,"afa2575feb",4100,5,1266843.59613175,-4294230.20053196,4527381.71197181
6662896959,"81195835@N00","PCA PNWR Winter Skills Day - January 7, 2012","{day,skills,porsche,pca,996,gt3,pnwr}",47.488383,-122.754063,41,"2012-01-07 13:54:29","2012-01-08 23:28:38",14,"0d0110c9c4",7017,8,-2336088.22049729,-3631289.91607069,4678625.0682328
6662896711,"81195835@N00","PCA PNWR Winter Skills Day - January 7, 2012","{day,skills,porsche,pca,996,gt3,pnwr}",47.490236,-122.754767,59,"2012-01-07 10:02:17","2012-01-08 23:28:35",13,"f6c0da6f32",7145,8,-2336050.67222122,-3631133.49371635,4678764.27980439
6662896447,"81195835@N00","PCA PNWR Winter Skills Day - January 7, 2012","{day,skills,porsche,pca,996,gt3,pnwr}",47.518273,-122.199382,25,"2012-01-07 05:42:56","2012-01-08 23:28:33",13,"4b9611bf9c",7010,8,-2299519.09210413,-3651661.69834561,4680870.04033326
6496624453,"81195835@N00","The Ridge Motorsports Park","{shelton,wa}",47.25458,-123.195417,119,"2011-12-11 13:05:24","2011-12-12 02:41:08",16,"bb8da014ea",7001,8,-2374461.71086989,-3629191.37662063,4661021.0010823
6496624249,"81195835@N00","The Ridge Motorsports Park","{shelton,wa}",47.25458,-123.197256,24,"2011-12-11 12:59:05","2011-12-12 02:41:06",16,"2f5db92be0",7147,8,-2374578.19436868,-3629115.16259178,4661021.0010823
